time,latitude,longitude,altitude,yaw,pitch,roll,accelerometer_x,accelerometer_y,accelerometer_z,gyro_x,gyro_y,gyro_z,speed_x,speed_y,current_x,current_y
1567977298.7498453,44.39296220810685,8.944490065250621,0.0,4.365862926789557,0.0,0.0,0.0,0.0,0.0,0.0,0.0,0.0,-11.141065703638874,-39.62819490586655,-0.005308148594445473,-0.008064949814511224
1567977298.8495977,44.39296149974727,8.944487330672315,0.0,4.365594889732501,0.0,0.0,0.0,0.0,0.0,0.0,0.0,0.0,9.561621648354599,35.242014747455976,0.005055958879649626,0.029387638736935354
1567977298.949939,44.392960788772996,8.944484589520874,0.0,4.3649034822539114,0.0,0.0,0.0,0.0,0.0,0.0,0.0,0.0,-11.122524031286451,-39.54609291431186,-0.00527203667733746,-0.007983120327813314
1567977299.0498867,44.39296007462659,8.944481842672081,0.0,4.364205898601412,0.0,0.0,0.0,0.0,0.0,0.0,0.0,0.0,9.533883913013561,35.1574298831364,0.005074727164394961,0.029409268421734865
1567977299.1498191,44.39295936158517,8.944479105458743,0.0,4.363612635726524,0.0,0.0,0.0,0.0,0.0,0.0,0.0,0.0,-11.109521299207351,-39.49450971974352,-0.00523388394279851,-0.007898205872844712
1567977299.2499604,44.392958644571046,8.944476357926076,0.0,4.363053333507025,0.0,0.0,0.0,0.0,0.0,0.0,0.0,0.0,9.505981236875833,35.074309705991396,0.0050862728943127525,0.029404422191812912
1567977299.3498642,44.39295792627285,8.944473610089313,0.0,4.36253324662615,0.0,0.0,0.0,0.0,0.0,0.0,0.0,0.0,-11.09107986102297,-39.418237058070986,-0.005192780161834208,-0.007799660015391216
1567977299.4498553,44.39295720842674,8.94447086878572,0.0,4.361896399989963,0.0,0.0,0.0,0.0,0.0,0.0,0.0,0.0,9.476238196364719,34.97459152876522,0.00510999430547794,0.029434660610750507
1567977299.5497422,44.39295648644272,8.944468116566558,0.0,4.361461934663696,0.0,0.0,0.0,0.0,0.0,0.0,0.0,0.0,-11.080092675388402,-39.36611999840703,-0.005155924358203044,-0.007721308559667607
1567977299.6497405,44.392955764764274,8.944465368474813,0.0,4.36115933696783,0.0,0.0,0.0,0.0,0.0,0.0,0.0,0.0,9.464097361958473,34.9344934624256,0.005131948487970133,0.029454559711207154
1567977299.750116,44.392955042188504,8.944462619664684,0.0,4.360810085014245,0.0,0.0,0.0,0.0,0.0,0.0,0.0,0.0,-11.05762880024117,-39.27790279976862,-0.00511093435355493,-0.007619221212973155
1567977299.849901,44.392954315787215,8.9444598595302,0.0,4.360409415997864,0.0,0.0,0.0,0.0,0.0,0.0,0.0,0.0,9.439453484842202,34.85666272034881,0.005157770432150836,0.029490478468748298
1567977299.94979,44.39295358935819,8.944457102860662,0.0,4.359972549791841,0.0,0.0,0.0,0.0,0.0,0.0,0.0,0.0,-11.043725187163421,-39.22177953708295,-0.005064390621391212,-0.007509673914425745
1567977300.0498047,44.39295286164556,8.944454344856823,0.0,4.359597543593184,0.0,0.0,0.0,0.0,0.0,0.0,0.0,0.0,9.41139097226109,34.7637702091536,0.005176115834078214,0.02949970930228387
1567977300.1498332,44.39295213008671,8.944451575721896,0.0,4.359130689554954,0.0,0.0,0.0,0.0,0.0,0.0,0.0,0.0,-11.024550182587816,-39.138860551498034,-0.00503026915006296,-0.007437408445640337
1567977300.2498367,44.39295139836611,8.944448809802235,0.0,4.358744241088871,0.0,0.0,0.0,0.0,0.0,0.0,0.0,0.0,9.394612034868008,34.7087528850258,0.00519400704397766,0.02951092316839464
1567977300.3498697,44.39295066427518,8.944446039301553,0.0,4.358006512188744,0.0,0.0,0.0,0.0,0.0,0.0,0.0,0.0,-11.010464359240416,-39.07290255822503,-0.004993738555324098,-0.0073540473112211555
1567977300.4498565,44.39294992764146,8.944443265743438,0.0,4.357325551818999,0.0,0.0,0.0,0.0,0.0,0.0,0.0,0.0,9.36509510352308,34.6173006788743,0.005206509372520156,0.029509593746308953
1567977300.5497837,44.39294918984669,8.944440492947122,0.0,4.35677093019871,0.0,0.0,0.0,0.0,0.0,0.0,0.0,0.0,-10.992216191195393,-38.99795765813081,-0.004959452447102442,-0.007279152749726611
1567977300.6498823,44.3929484512057,8.944437721679629,0.0,4.356201950753233,0.0,0.0,0.0,0.0,0.0,0.0,0.0,0.0,9.34044329603283,34.53965213924944,0.005221263250353711,0.02951320150752166
1567977300.7498016,44.39294771042153,8.944434947097964,0.0,4.355674842295672,0.0,0.0,0.0,0.0,0.0,0.0,0.0,0.0,-10.976632812809884,-38.930434029434366,-0.0049221615303172,-0.0071965807855988925
1567977300.8499007,44.39294696828383,8.944432171943307,0.0,4.355124381749093,0.0,0.0,0.0,0.0,0.0,0.0,0.0,0.0,9.317798085455635,34.46726047495782,0.005237111381581022,0.029515281686242165
1567977300.9499266,44.39294622615179,8.944429400819743,0.0,4.354776970561673,0.0,0.0,0.0,0.0,0.0,0.0,0.0,0.0,-10.948102911404785,-38.822048382063066,-0.004879720643787157,-0.00710332422325799
1567977301.0498023,44.39294548144856,8.944426622550706,0.0,4.354502043542221,0.0,0.0,0.0,0.0,0.0,0.0,0.0,0.0,9.297967338586078,34.402372451146796,0.005266764478567877,0.029561567131427657
1567977301.1497777,44.39294473694444,8.944423847643815,0.0,4.354144302849004,0.0,0.0,0.0,0.0,0.0,0.0,0.0,0.0,-10.939951990387524,-38.78694211040434,-0.0048304418716474526,-0.006987936122021879
1567977301.2497804,44.39294398964286,8.944421065534529,0.0,4.353756654260291,0.0,0.0,0.0,0.0,0.0,0.0,0.0,0.0,9.267514792346063,34.30248689765927,0.005290376197360227,0.029586941358455847
1567977301.349687,44.39294323990177,8.944418277720889,0.0,4.353343499910107,0.0,0.0,0.0,0.0,0.0,0.0,0.0,0.0,-10.9237154924305,-38.71860092418609,-0.004786860490217665,-0.006886913979748804
1567977301.4498556,44.39294248955763,8.944415491180168,0.0,4.35293420569354,0.0,0.0,0.0,0.0,0.0,0.0,0.0,0.0,9.238042664571566,34.20434878479159,0.005311031827823896,0.029607042717654575
1567977301.5497134,44.39294173637926,8.944412697996315,0.0,4.352402168908599,0.0,0.0,0.0,0.0,0.0,0.0,0.0,0.0,-10.913304571753951,-38.66950383537126,-0.004751345681246602,-0.00680982759439222
1567977301.6497438,44.39294098173465,8.944409904394139,0.0,4.3517629657896855,0.0,0.0,0.0,0.0,0.0,0.0,0.0,0.0,9.211660707747644,34.12358112920093,0.00531512089007835,0.029574534536594907
1567977301.7498326,44.39294022588737,8.944407111735856,0.0,4.351147632156316,0.0,0.0,0.0,0.0,0.0,0.0,0.0,0.0,-10.878980126336858,-38.535633230636506,-0.00471790653514625,-0.006737960306576363
1567977301.849862,44.39293946775019,8.94440431563521,0.0,4.3505733593011655,0.0,0.0,0.0,0.0,0.0,0.0,0.0,0.0,9.18641751981702,34.04551067010162,0.005330082294391559,0.029581137478070847
1567977301.9498858,44.392938709586986,8.944401524156751,0.0,4.350028548577701,0.0,0.0,0.0,0.0,0.0,0.0,0.0,0.0,-10.865921877434038,-38.48079635677023,-0.004681155447408855,-0.0066574412058212
1567977302.0498943,44.392937948823715,8.944398727663808,0.0,4.349490116000567,0.0,0.0,0.0,0.0,0.0,0.0,0.0,0.0,9.159070424035658,33.9603013905821,0.005345675975642716,0.029586084770991533
1567977302.149949,44.39293718745751,8.944395933219251,0.0,4.349031320709308,0.0,0.0,0.0,0.0,0.0,0.0,0.0,0.0,-10.846345144529053,-38.40400027817433,-0.004642311861303543,-0.006573985590454287
1567977302.249922,44.39293642481361,8.944393137495725,0.0,4.348680106906883,0.0,0.0,0.0,0.0,0.0,0.0,0.0,0.0,9.13886864128293,33.89523865601841,0.005366280903573383,0.029602156732049904
1567977302.3497832,44.39293566204891,8.944390344113732,0.0,4.3483531389850185,0.0,0.0,0.0,0.0,0.0,0.0,0.0,0.0,-10.82505362726893,-38.3231584612932,-0.004599034214749896,-0.00648008570950552
1567977302.449793,44.39293489660217,8.944387543767327,0.0,4.347997624706247,0.0,0.0,0.0,0.0,0.0,0.0,0.0,0.0,9.116441463937074,33.82454689062745,0.005388090009119369,0.029621368066380424
1567977302.5496767,44.39293412971576,8.944384741281233,0.0,4.347611478118353,0.0,0.0,0.0,0.0,0.0,0.0,0.0,0.0,-10.807208438407086,-38.25085393214312,-0.004558085834585004,-0.006390652687391217
1567977302.64974,44.39293336209076,8.944381939410823,0.0,4.347212377356389,0.0,0.0,0.0,0.0,0.0,0.0,0.0,0.0,9.09556609338897,33.75577503403745,0.005409393883722849,0.029640213454878772
1567977302.7498045,44.39293259348301,8.94437913749169,0.0,4.346760838233335,0.0,0.0,0.0,0.0,0.0,0.0,0.0,0.0,-10.790869142241192,-38.18320723092342,-0.004518848814150407,-0.006305260142324291
1567977302.8497698,44.392931821671944,8.94437632807046,0.0,4.346215805871104,0.0,0.0,0.0,0.0,0.0,0.0,0.0,0.0,9.068211163613507,33.671632766955625,0.005419540946307346,0.0296266313518653
1567977302.9499288,44.3929310484582,8.944373518381596,0.0,4.345619810914531,0.0,0.0,0.0,0.0,0.0,0.0,0.0,0.0,-10.767918097608607,-38.08818477529569,-0.004487505526676217,-0.006240336853312642
1567977303.050037,44.39293027321312,8.944370706326824,0.0,4.345030398515828,0.0,0.0,0.0,0.0,0.0,0.0,0.0,0.0,9.04624317285875,33.603658876199226,0.00543567595644242,0.029637029984517976
1567977303.149765,44.3929294983003,8.944367900301224,0.0,4.344469547841127,0.0,0.0,0.0,0.0,0.0,0.0,0.0,0.0,-10.757588767483695,-38.042808653708704,-0.004453354173610302,-0.006168411457155194
1567977303.2498262,44.39292871980942,8.944365085943806,0.0,4.343925852580442,0.0,0.0,0.0,0.0,0.0,0.0,0.0,0.0,9.0195154676888,33.522610576610546,0.005445151364349193,0.029623087879603043
1567977303.3497458,44.39292794295227,8.944362281882931,0.0,4.343423243000959,0.0,0.0,0.0,0.0,0.0,0.0,0.0,0.0,-10.730568129428976,-37.9416716758396,-0.004411718883393866,-0.006074666234881947
1567977303.4498737,44.392927162984236,8.944359470502427,0.0,4.342996921987236,0.0,0.0,0.0,0.0,0.0,0.0,0.0,0.0,8.98917012877193,33.42481257519137,0.005467091701266199,0.02964681257668121
1567977303.549824,44.39292638265211,8.944356661078686,0.0,4.342635449331562,0.0,0.0,0.0,0.0,0.0,0.0,0.0,0.0,-10.71881099896228,-37.89450798611202,-0.004371613058024215,-0.00598972801345702
1567977303.64977,44.392925601788235,8.944353852656505,0.0,4.342290340179263,0.0,0.0,0.0,0.0,0.0,0.0,0.0,0.0,8.970173802970498,33.362714523704405,0.005486840983645577,0.029656741716942672
1567977303.749805,44.3929248187408,8.944351039320754,0.0,4.3419277703711305,0.0,0.0,0.0,0.0,0.0,0.0,0.0,0.0,-10.696902594030604,-37.806299682803655,-0.004330749408677312,-0.0059016575896582504
1567977303.8498518,44.39292403518133,8.9443482272478,0.0,4.341546903628803,0.0,0.0,0.0,0.0,0.0,0.0,0.0,0.0,8.950033756380165,33.2954831829321,0.005508415727959571,0.02967416532313396
1567977303.9498901,44.392923250036525,8.944345412780379,0.0,4.34113444552986,0.0,0.0,0.0,0.0,0.0,0.0,0.0,0.0,-10.679935268368444,-37.73552875102427,-0.004290351672039175,-0.0058131063728268095
1567977304.0501506,44.39292246215689,8.944342592192356,0.0,4.3406600260909425,0.0,0.0,0.0,0.0,0.0,0.0,0.0,0.0,8.921435031867974,33.2047442560925,0.005523509042202733,0.029676692343218465
1567977304.149804,44.392921672929106,8.94433977101319,0.0,4.34011968919339,0.0,0.0,0.0,0.0,0.0,0.0,0.0,0.0,-10.664778218879116,-37.67032231182995,-0.004257038093165493,-0.005742888441174369
1567977304.2498097,44.39292088278488,8.94433695121814,0.0,4.339546855320739,0.0,0.0,0.0,0.0,0.0,0.0,0.0,0.0,8.897797403283189,33.12980764991935,0.00553283777247116,0.02966088063859812
1567977304.3499632,44.392920090263495,8.944334127718832,0.0,4.338977052784202,0.0,0.0,0.0,0.0,0.0,0.0,0.0,0.0,-10.644433441956373,-37.58311847853542,-0.004229027259811982,-0.0056882924209575095
1567977304.4498565,44.39291929807543,8.944331310068694,0.0,4.338424676092519,0.0,0.0,0.0,0.0,0.0,0.0,0.0,0.0,8.882206381263714,33.079511334394915,0.005547392885672704,0.02966140912958725
1567977304.549796,44.392918503859974,8.9443284896927,0.0,4.337898261734601,0.0,0.0,0.0,0.0,0.0,0.0,0.0,0.0,-10.630250127877181,-37.5186759785006,-0.004196166495877305,-0.0056202330725682245
1567977304.6501756,44.392917708784736,8.944325670430437,0.0,4.337422691745427,0.0,0.0,0.0,0.0,0.0,0.0,0.0,0.0,8.862085614915896,33.0136859967546,0.005568219793474718,0.029681542989770403
1567977304.7497969,44.39291691343712,8.944322853877479,0.0,4.337010664680104,0.0,0.0,0.0,0.0,0.0,0.0,0.0,0.0,-10.619060248241253,-37.47187500631817,-0.0041562332408861475,-0.005534804758639884
1567977304.8498611,44.3929161157903,8.944320032396462,0.0,4.3366422646241,0.0,0.0,0.0,0.0,0.0,0.0,0.0,0.0,8.837091181930335,32.93353110053105,0.005586620888559295,0.0296904800806789
1567977304.9500444,44.392915319293685,8.944317217952381,0.0,4.336286353344715,0.0,0.0,0.0,0.0,0.0,0.0,0.0,0.0,-10.596114584764505,-37.38763653730119,-0.004109173163658382,-0.005428721774863095
1567977305.0498996,44.39291451958263,8.944314395128151,0.0,4.335919711076176,0.0,0.0,0.0,0.0,0.0,0.0,0.0,0.0,8.803893736548716,32.82634603081794,0.005605082671318452,0.029699116804436793
1567977305.150025,44.392913719011844,8.944311572377817,0.0,4.33553210131938,0.0,0.0,0.0,0.0,0.0,0.0,0.0,0.0,-10.57617243224987,-37.30999805465862,-0.004073324346089841,-0.005358079487833428
1567977305.2499259,44.392912917562185,8.944308749881104,0.0,4.335104287402476,0.0,0.0,0.0,0.0,0.0,0.0,0.0,0.0,8.788706458702407,32.779776124760126,0.005625137113022261,0.02971450358514926
1567977305.349753,44.39291211318617,8.944305920844213,0.0,4.334618858387408,0.0,0.0,0.0,0.0,0.0,0.0,0.0,0.0,-10.566755438722662,-37.262591333528725,-0.004039874341353083,-0.0052882332883716285
1567977305.4498231,44.39291130930524,8.944303097754705,0.0,4.334085634722435,0.0,0.0,0.0,0.0,0.0,0.0,0.0,0.0,8.767377202696373,32.70959606273442,0.005637050254719966,0.029704891985016114
1567977305.5499809,44.392910502631345,8.944300269371686,0.0,4.333527770675342,0.0,0.0,0.0,0.0,0.0,0.0,0.0,0.0,-10.547826690347403,-37.18011241802189,-0.004011471157869306,-0.005233841458633412
1567977305.6499062,44.3929096949722,8.944297442135905,0.0,4.332971390137985,0.0,0.0,0.0,0.0,0.0,0.0,0.0,0.0,8.74952278092063,32.654750034128426,0.005646297262454241,0.029689156715433776
1567977305.7499294,44.39290888667902,8.944294617190387,0.0,4.332431446763062,0.0,0.0,0.0,0.0,0.0,0.0,0.0,0.0,-10.526660118158695,-37.09327463450258,-0.003975656747871244,-0.005154411888269136
1567977305.8499436,44.392908076838374,8.944291791149372,0.0,4.331923842717437,0.0,0.0,0.0,0.0,0.0,0.0,0.0,0.0,8.719211830044616,32.554745267509546,0.0056640296458161645,0.029701475772954136
1567977305.9499624,44.39290726664485,8.94428896783779,0.0,4.331467068444233,0.0,0.0,0.0,0.0,0.0,0.0,0.0,0.0,-10.51552481988949,-37.04707380161416,-0.003942323920044709,-0.005090483866060015
1567977306.0499787,44.39290645612732,8.94428614692165,0.0,4.331061073744539,0.0,0.0,0.0,0.0,0.0,0.0,0.0,0.0,8.705786049136952,32.51291953901516,0.005686353562543525,0.029722644243643986
1567977306.149761,44.392905644238894,8.94428332440749,0.0,4.330688067253275,0.0,0.0,0.0,0.0,0.0,0.0,0.0,0.0,-10.503264330124209,-36.995490059253086,-0.0039013422231884793,-0.005003099746010126
1567977306.2497053,44.39290483049615,8.944280498447037,0.0,4.330323901069841,0.0,0.0,0.0,0.0,0.0,0.0,0.0,0.0,8.67970213908355,32.42884686478688,0.005700903638854009,0.02971722066897478
1567977306.3499026,44.39290401676153,8.944277675515487,0.0,4.3299509582098334,0.0,0.0,0.0,0.0,0.0,0.0,0.0,0.0,-10.47574624513307,-36.89230127370277,-0.0038616459533244484,-0.0049206101863290275
1567977306.4499633,44.392903199741184,8.944274844335213,0.0,4.329551814636606,0.0,0.0,0.0,0.0,0.0,0.0,0.0,0.0,8.654238772399946,32.349890870853706,0.005716588928607804,0.02971969250425458
1567977306.5498571,44.39290238231025,8.944272015154782,0.0,4.329110356369927,0.0,0.0,0.0,0.0,0.0,0.0,0.0,0.0,-10.459000954277927,-36.82496822980929,-0.0038289815792345817,-0.004856552433933736
1567977306.6498907,44.392901564027845,8.94426918682725,0.0,4.328620119783739,0.0,0.0,0.0,0.0,0.0,0.0,0.0,0.0,8.636102673674772,32.29287553528654,0.005730279464717352,0.029716308241761552
1567977306.7498991,44.39290074578664,8.94426636279386,0.0,4.328092295725849,0.0,0.0,0.0,0.0,0.0,0.0,0.0,0.0,-10.43955292180347,-36.74700767771051,-0.003793530862594011,-0.004782046184639427
1567977306.8498175,44.39289992507901,8.944263534635255,0.0,4.327545927573311,0.0,0.0,0.0,0.0,0.0,0.0,0.0,0.0,8.60907064064148,32.20842487869445,0.00574270278131304,0.029711378433561232
1567977306.9500847,44.39289910155137,8.944260701219472,0.0,4.32699989829862,0.0,0.0,0.0,0.0,0.0,0.0,0.0,0.0,-10.428332893581354,-36.69178607182396,-0.0037639836528557116,-0.004720746856427899
1567977307.0499496,44.39289827977328,8.944257878176918,0.0,4.326474692991631,0.0,0.0,0.0,0.0,0.0,0.0,0.0,0.0,8.588176698015742,32.136152465781606,0.005756175408412035,0.029706966416684362
1567977307.149853,44.39289745452521,8.944255047351822,0.0,4.325983482729548,0.0,0.0,0.0,0.0,0.0,0.0,0.0,0.0,-10.414172179390354,-36.62629678032745,-0.00373566046070663,-0.004668001232814141
1567977307.2498863,44.39289663213312,8.94425223010235,0.0,4.325539807740032,0.0,0.0,0.0,0.0,0.0,0.0,0.0,0.0,8.579203946743673,32.102363009441795,0.005778919776357336,0.029727993125458055
1567977307.349806,44.39289580629131,8.944249404461392,0.0,4.32513580820229,0.0,0.0,0.0,0.0,0.0,0.0,0.0,0.0,-10.405900393331207,-36.58294340352203,-0.003699984703360657,-0.004595982647535961
1567977307.4498587,44.392894979433336,8.944246578496628,0.0,4.324757551910148,0.0,0.0,0.0,0.0,0.0,0.0,0.0,0.0,8.558373986451869,32.03481972900429,0.00579621693446531,0.029733165409362695
1567977307.5498831,44.39289415350272,8.94424375870691,0.0,4.324387590724324,0.0,0.0,0.0,0.0,0.0,0.0,0.0,0.0,-10.38428623933882,-36.5034602343832,-0.003660690543246861,-0.004517127915357674
1567977307.6498582,44.39289332486422,8.944240932700772,0.0,4.3240046319604755,0.0,0.0,0.0,0.0,0.0,0.0,0.0,0.0,8.536989939468523,31.96934931987066,0.005813341041084282,0.029737228505046856
1567977307.7498097,44.39289249579355,8.94423810841113,0.0,4.3235942564760315,0.0,0.0,0.0,0.0,0.0,0.0,0.0,0.0,-10.365628891116732,-36.42952558763586,-0.003622379656323705,-0.004436253915132103
1567977307.8497713,44.392891664599134,8.944235280358095,0.0,4.323142009390629,0.0,0.0,0.0,0.0,0.0,0.0,0.0,0.0,8.509375100786922,31.880959862780568,0.005825380649079867,0.02972795936829184
1567977307.9497955,44.39289083102247,8.944232448023463,0.0,4.322647728379453,0.0,0.0,0.0,0.0,0.0,0.0,0.0,0.0,-10.349109714468753,-36.357242489588785,-0.0035948446286579163,-0.004384349625072004
1567977308.049936,44.392889998423705,8.944229623111928,0.0,4.322124177076812,0.0,0.0,0.0,0.0,0.0,0.0,0.0,0.0,8.493978713523148,31.829519058170945,0.005840859065437115,0.029732139447572817
1567977308.1497643,44.392889164742215,8.94422679880125,0.0,4.32158572683953,0.0,0.0,0.0,0.0,0.0,0.0,0.0,0.0,-10.337844225510816,-36.306562534368716,-0.0035630099220573955,-0.004320382452318736
1567977308.2498727,44.39288832908283,8.94422397210907,0.0,4.321051170312327,0.0,0.0,0.0,0.0,0.0,0.0,0.0,0.0,8.468740629604875,31.75151649892618,0.0058491623147994215,0.029714177147861384
1567977308.3496695,44.3928874941413,8.944221152045495,0.0,4.320538638014202,0.0,0.0,0.0,0.0,0.0,0.0,0.0,0.0,-10.314132410461035,-36.216589073107805,-0.003525610340763656,-0.004239348612945136
1567977308.4497516,44.3928866574266,8.94421832996254,0.0,4.3200612220558785,0.0,0.0,0.0,0.0,0.0,0.0,0.0,0.0,8.437579844070084,31.650812552240954,0.0058614485013280425,0.029706062918559012
1567977308.5498044,44.39288581868608,8.944215504706941,0.0,4.31962416629564,0.0,0.0,0.0,0.0,0.0,0.0,0.0,0.0,-10.296279767338886,-36.14306611598165,-0.0034969464747643475,-0.004189006961951416
1567977308.6496916,44.39288498069717,8.944212685327395,0.0,4.319221365255906,0.0,0.0,0.0,0.0,0.0,0.0,0.0,0.0,8.427576339566778,31.618231115550643,0.005875653651691387,0.02969891860943777
1567977308.7498987,44.392884141597406,8.944209865333164,0.0,4.318838895181164,0.0,0.0,0.0,0.0,0.0,0.0,0.0,0.0,-10.273452346717555,-36.052059463769,-0.0034629752117405705,-0.004124034839717412
1567977308.8497362,44.39288330170273,8.944207045691012,0.0,4.31846000254022,0.0,0.0,0.0,0.0,0.0,0.0,0.0,0.0,8.412961966704353,31.56964921210322,0.005898384925548229,0.02972061919575815
1567977308.9499576,44.3928824607507,8.944204225562506,0.0,4.318066582510134,0.0,0.0,0.0,0.0,0.0,0.0,0.0,0.0,-10.265513243387094,-36.01393946387936,-0.0034259846378023413,-0.004047651522490044
1567977309.0499423,44.3928816190225,8.944201406068998,0.0,4.317644030099359,0.0,0.0,0.0,0.0,0.0,0.0,0.0,0.0,8.389886836495371,31.492880960981534,0.005916131231893972,0.02972785603222655
1567977309.1499026,44.39288077590181,8.944198585415245,0.0,4.317183951354373,0.0,0.0,0.0,0.0,0.0,0.0,0.0,0.0,-10.252628211476416,-35.95780900255732,-0.003392606526702829,-0.003980941218260536
1567977309.2499034,44.392879931539525,8.944195764407931,0.0,4.316688090764043,0.0,0.0,0.0,0.0,0.0,0.0,0.0,0.0,8.366667210046158,31.419319783412917,0.005926696833013769,0.029715140366098285
1567977309.3500059,44.39287908484762,8.94419293966886,0.0,4.316166058993698,0.0,0.0,0.0,0.0,0.0,0.0,0.0,0.0,-10.236706474640368,-35.88740696768015,-0.003366121258190697,-0.003931531174417337
1567977309.4498155,44.39287823917817,8.944190122519178,0.0,4.315635037265615,0.0,0.0,0.0,0.0,0.0,0.0,0.0,0.0,8.350556266688535,31.365425272317474,0.005944416683982263,0.02972806417818938
1567977309.5498145,44.392877391879395,8.944187304127711,0.0,4.315110596371735,0.0,0.0,0.0,0.0,0.0,0.0,0.0,0.0,-10.232076449405891,-35.86072065174541,-0.0033358068469992045,-0.003872888365356604
1567977309.6499455,44.392876543394294,8.944184485854889,0.0,4.314608644842512,0.0,0.0,0.0,0.0,0.0,0.0,0.0,0.0,8.327328085993214,31.293905417474893,0.005947924483870858,0.029692196077296083
1567977309.7498562,44.39287569573452,8.944181674148712,0.0,4.314140959141616,0.0,0.0,0.0,0.0,0.0,0.0,0.0,0.0,-10.198224227963514,-35.735797089308846,-0.003302406708899486,-0.003808032113010014
1567977309.8504255,44.39287484543582,8.944178857240829,0.0,4.313707823206219,0.0,0.0,0.0,0.0,0.0,0.0,0.0,0.0,8.30499471622419,31.225046248644162,0.005963449977671933,0.029695088220641055
1567977309.9498239,44.39287399577777,8.944176045739152,0.0,4.3133046966450195,0.0,0.0,0.0,0.0,0.0,0.0,0.0,0.0,-10.182876081082851,-35.67710438546593,-0.0032663103144429393,-0.003735905785404274
1567977310.0497797,44.392873145871256,8.944173236510014,0.0,4.312917083567445,0.0,0.0,0.0,0.0,0.0,0.0,0.0,0.0,8.2850143074625,31.15844649576887,0.005980526191958696,0.02969667152756468
1567977310.1496413,44.392872292481634,8.944170418816674,0.0,4.312527930923157,0.0,0.0,0.0,0.0,0.0,0.0,0.0,0.0,-10.168892941211617,-35.61263198881989,-0.003233178577897583,-0.0036689939259662227
1567977310.2500758,44.392871440903065,8.944167610201948,0.0,4.312123986580243,0.0,0.0,0.0,0.0,0.0,0.0,0.0,0.0,8.266320290520339,31.091060581024067,0.005999639375098985,0.029706918631552684
1567977310.349859,44.39287058657865,8.944164795810426,0.0,4.311690047594176,0.0,0.0,0.0,0.0,0.0,0.0,0.0,0.0,-10.158743388825554,-35.5643680607624,-0.0032013029356549342,-0.0036071757714913055
1567977310.4497504,44.39286973288826,8.9441619870314,0.0,4.311223271185092,0.0,0.0,0.0,0.0,0.0,0.0,0.0,0.0,8.24728113038887,31.02824547210858,0.00600793390927721,0.029682947577496586
1567977310.5498776,44.39286887772432,8.94415917718029,0.0,4.310724872944094,0.0,0.0,0.0,0.0,0.0,0.0,0.0,0.0,-10.132439684539404,-35.4592218131479,-0.003170077965390531,-0.0035454783648516813
1567977310.6498213,44.39286802111506,8.944156366565764,0.0,4.310205253930237,0.0,0.0,0.0,0.0,0.0,0.0,0.0,0.0,8.22368268749333,30.953154868480496,0.006019102364093827,0.02967423093117833
1567977310.749676,44.39286716325635,8.944153555939579,0.0,4.309679987171595,0.0,0.0,0.0,0.0,0.0,0.0,0.0,0.0,-10.119220203515823,-35.401027471838624,-0.0031421749947528983,-0.003492210118063936
1567977310.849772,44.39286630434364,8.94415074593014,0.0,4.309163431170308,0.0,0.0,0.0,0.0,0.0,0.0,0.0,0.0,8.201339718479616,30.88240749622571,0.006026478926491874,0.029653840133204275
1567977310.9498024,44.39286544750784,8.944147946636258,0.0,4.3086719141757595,0.0,0.0,0.0,0.0,0.0,0.0,0.0,0.0,-10.094002542245086,-35.309708529373914,-0.003108492865636835,-0.0034269973534869005
1567977311.0500886,44.39286458641786,8.944145137160335,0.0,4.308208899582587,0.0,0.0,0.0,0.0,0.0,0.0,0.0,0.0,8.174696621290607,30.80359927044769,0.006038343212298742,0.029648317487080356
1567977311.1499047,44.39286372663517,8.944142335414021,0.0,4.3077783710871,0.0,0.0,0.0,0.0,0.0,0.0,0.0,0.0,-10.077584448225823,-35.24930235594788,-0.0030795683721284587,-0.0033785843096132
1567977311.2498786,44.39286286472521,8.94413952997748,0.0,4.307371668729143,0.0,0.0,0.0,0.0,0.0,0.0,0.0,0.0,8.161013501782678,30.76478200123009,0.0060531330204877136,0.029648342380868123
1567977311.3499382,44.39286200203479,8.944136725102155,0.0,4.306976260053567,0.0,0.0,0.0,0.0,0.0,0.0,0.0,0.0,-10.065264552917823,-35.19720369799875,-0.0030476628141545533,-0.0033161892194019313
1567977311.449739,44.39286114260358,8.944133933866668,0.0,4.306579579852487,0.0,0.0,0.0,0.0,0.0,0.0,0.0,0.0,8.147744672717856,30.71213970646727,0.006072696410657756,0.029655059590428454
1567977311.5498633,44.39286028086783,8.944131138272047,0.0,4.306163634108797,0.0,0.0,0.0,0.0,0.0,0.0,0.0,0.0,-10.049134802265629,-35.12739465422095,-0.003011250240199521,-0.0032430629951131842
1567977311.6498067,44.39285941710656,8.944128339416928,0.0,4.30572065214227,0.0,0.0,0.0,0.0,0.0,0.0,0.0,0.0,8.122297135105017,30.631287225093907,0.0060823676898876375,0.02963660445683173
1567977311.7498162,44.39285855152197,8.94412553819009,0.0,4.305246245510631,0.0,0.0,0.0,0.0,0.0,0.0,0.0,0.0,-10.028997243383637,-35.042883814159296,-0.0029846502504121885,-0.0031951071823725363
1567977311.8497403,44.39285768680612,8.944122743526405,0.0,4.304746012679047,0.0,0.0,0.0,0.0,0.0,0.0,0.0,0.0,8.108296435175982,30.582990118526347,0.006100076764412901,0.0296475613431049
1567977311.949824,44.392856820633,8.944119948067796,0.0,4.304229098674195,0.0,0.0,0.0,0.0,0.0,0.0,0.0,0.0,-10.024260026785441,-35.0145419833985,-0.0029536745503728696,-0.0031328851637528188
1567977312.049832,44.392855953382316,8.944117153123267,0.0,4.303707773923044,0.0,0.0,0.0,0.0,0.0,0.0,0.0,0.0,8.081497685486855,30.497458297780526,0.006108279340558819,0.029630137196031685
1567977312.1498606,44.392855085232085,8.944114359241432,0.0,4.3031980074948155,0.0,0.0,0.0,0.0,0.0,0.0,0.0,0.0,-10.006345759675344,-34.94291886137746,-0.002927882267321511,-0.003089011860466097
1567977312.2498355,44.39285421786268,8.944111571682985,0.0,4.302711846831203,0.0,0.0,0.0,0.0,0.0,0.0,0.0,0.0,8.068598555111347,30.456119270117924,0.006119721941922676,0.029618211473821328
1567977312.3498232,44.392853349223664,8.94410878365138,0.0,4.302254029737249,0.0,0.0,0.0,0.0,0.0,0.0,0.0,0.0,-9.987762957412688,-34.86698249883973,-0.002897106335946962,-0.003031217551718049
1567977312.449756,44.39285247975207,8.944105996335201,0.0,4.3018230681544996,0.0,0.0,0.0,0.0,0.0,0.0,0.0,0.0,8.049216028748816,30.39351335354942,0.006133703448487148,0.029614429766755733
1567977312.5498412,44.392851610098965,8.944103211638506,0.0,4.301411924088557,0.0,0.0,0.0,0.0,0.0,0.0,0.0,0.0,-9.97098857713071,-34.80123865395402,-0.00286358006823888,-0.002966776024910016
1567977312.6498303,44.39285073817141,8.94410042275491,0.0,4.301008810836578,0.0,0.0,0.0,0.0,0.0,0.0,0.0,0.0,8.02538137552543,30.31893457324482,0.006144858956891384,0.029602831482329388
1567977312.7497704,44.39284986717182,8.944097639912714,0.0,4.300600807862494,0.0,0.0,0.0,0.0,0.0,0.0,0.0,0.0,-9.949941767623175,-34.723607974317126,-0.0028324895677981432,-0.002910925445203681
1567977312.849785,44.39284899529124,8.94409485741816,0.0,4.300173916727436,0.0,0.0,0.0,0.0,0.0,0.0,0.0,0.0,8.00927573202298,30.26814192742063,0.006158335840991303,0.02959657210889284
1567977312.9498396,44.39284812205762,8.944092073941766,0.0,4.29972053547818,0.0,0.0,0.0,0.0,0.0,0.0,0.0,0.0,-9.93495257002553,-34.659226627923445,-0.0028024223697027282,-0.0028529637504580846
1567977313.0500114,44.39284724957393,8.944089296386128,0.0,4.299240683539502,0.0,0.0,0.0,0.0,0.0,0.0,0.0,0.0,7.990370833151589,30.203060417317758,0.0061732948500952565,0.029596810612048163
1567977313.1499856,44.392846374353645,8.944086513843718,0.0,4.298737044329641,0.0,0.0,0.0,0.0,0.0,0.0,0.0,0.0,-9.926586829275966,-34.61510584041816,-0.0027781915069955724,-0.0028123542394311515
1567977313.249909,44.39284550002168,8.944083737977959,0.0,4.2982213492377035,0.0,0.0,0.0,0.0,0.0,0.0,0.0,0.0,7.977292789487636,30.160214155009434,0.006181686515022094,0.029576822103434867
1567977313.350196,44.39284462375871,8.94408095988648,0.0,4.297704012189744,0.0,0.0,0.0,0.0,0.0,0.0,0.0,0.0,-9.909218006153855,-34.53948147304583,-0.002755193379537983,-0.0027751214402547963
1567977313.4500313,44.39284374774639,8.944078186440915,0.0,4.297199708621569,0.0,0.0,0.0,0.0,0.0,0.0,0.0,0.0,7.965513553001559,30.121378332136327,0.006190078516382014,0.02955612468313437
1567977313.5499482,44.39284286960723,8.94407540998065,0.0,4.296716891691148,0.0,0.0,0.0,0.0,0.0,0.0,0.0,0.0,-9.89310775114449,-34.46596181279809,-0.002728049121501936,-0.0027215449725033133
1567977313.6498506,44.39284199406904,8.944072645261159,0.0,4.2962610179233724,0.0,0.0,0.0,0.0,0.0,0.0,0.0,0.0,7.949449654126406,30.057849964009844,0.0062093775402400865,0.029567511119460016
1567977313.7499065,44.39284111661314,8.944069877812643,0.0,4.295829228166648,0.0,0.0,0.0,0.0,0.0,0.0,0.0,0.0,-9.88645251887729,-34.429905783938764,-0.0026964493820997417,-0.0026615253139583434
1567977313.8499315,44.392840238294696,8.944067109797746,0.0,4.295744829852472,0.0,0.0,0.0,0.0,0.0,0.0,0.0,0.0,7.929348404659071,29.987618591130722,0.006221841051089167,0.02955666818170767
1567977313.9499443,44.39283935911131,8.94406434088803,0.0,4.295159292128284,0.0,0.0,0.0,0.0,0.0,0.0,0.0,0.0,-9.870548313171863,-34.36250058258746,-0.0026681913933097245,-0.0026103544891031213
1567977314.049799,44.39283848119847,8.944061580866553,0.0,4.294598058903903,0.0,0.0,0.0,0.0,0.0,0.0,0.0,0.0,7.915566707880425,29.940910063356355,0.006240645955221739,0.02956800918499649
1567977314.1497595,44.39283760009052,8.944058814428436,0.0,4.294143053645364,0.0,0.0,0.0,0.0,0.0,0.0,0.0,0.0,-9.863138233357324,-34.325406478948345,-0.002636908262652689,-0.002547238615966542
1567977314.2500446,44.392836721035046,8.944056057827877,0.0,4.2936791959912455,0.0,0.0,0.0,0.0,0.0,0.0,0.0,0.0,7.889540575934934,29.853859188327455,0.006244571256763211,0.02953494217791515
1567977314.3497963,44.39283583886138,8.944053294990926,0.0,4.293190128606341,0.0,0.0,0.0,0.0,0.0,0.0,0.0,0.0,-9.842362474772242,-34.23765547316353,-0.0026162414107154313,-0.002516714504401517
1567977314.4499106,44.39283495635076,8.944050535452345,0.0,4.292468281680769,0.0,0.0,0.0,0.0,0.0,0.0,0.0,0.0,7.876856388717555,29.817281008968003,0.0062501523897335485,0.02950972229910514
1567977314.5499241,44.392834074633356,8.944047783307571,0.0,4.2919601744884375,0.0,0.0,0.0,0.0,0.0,0.0,0.0,0.0,-9.819437698043945,-34.15008263791255,-0.0025863174779300066,-0.0024588521942386712
1567977314.649876,44.3928331906215,8.944045027103453,0.0,4.291577872282442,0.0,0.0,0.0,0.0,0.0,0.0,0.0,0.0,7.851744147418145,29.73635288853016,0.006261027701953372,0.029501686399074037
1567977314.7499928,44.39283230885218,8.944042280867636,0.0,4.29113666531325,0.0,0.0,0.0,0.0,0.0,0.0,0.0,0.0,-9.804984340397606,-34.097235651186224,-0.0025594690844007147,-0.0024175227469151114
1567977314.8499124,44.392831424532446,8.944039530090729,0.0,4.290667398537083,0.0,0.0,0.0,0.0,0.0,0.0,0.0,0.0,7.8395185006553225,29.703223841757865,0.006274756305089933,0.029496722514192754
1567977314.9497464,44.39283054055148,8.944036783777177,0.0,4.290213520248852,0.0,0.0,0.0,0.0,0.0,0.0,0.0,0.0,-9.787657102477429,-34.03026041511861,-0.0025237207204953276,-0.0023449601629060984
1567977315.049875,44.3928296568908,8.944034041305589,0.0,4.2899169704881555,0.0,0.0,0.0,0.0,0.0,0.0,0.0,0.0,7.81573448105665,29.619791476459092,0.0062863579140286065,0.029480418276869466
1567977315.1501372,44.39282877241604,8.944031298533961,0.0,4.289555797750538,0.0,0.0,0.0,0.0,0.0,0.0,0.0,0.0,-9.765198328734874,-33.941898234187356,-0.002495801757199584,-0.0022993074655112064
1567977315.2498336,44.392827886610064,8.944028554812569,0.0,4.289055035089644,0.0,0.0,0.0,0.0,0.0,0.0,0.0,0.0,7.8022050409748065,29.57889217606203,0.006298285057280434,0.029470168985989434
1567977315.3497307,44.39282699996709,8.94402581228202,0.0,4.2885457556524695,0.0,0.0,0.0,0.0,0.0,0.0,0.0,0.0,-9.749794947670601,-33.87598673414714,-0.0024668468496666573,-0.0022433119154282727
1567977315.449855,44.3928261122282,8.944023069976895,0.0,4.288066591422474,0.0,0.0,0.0,0.0,0.0,0.0,0.0,0.0,7.779119102520294,29.502319411027436,0.006309038148412725,0.02946293074109798
1567977315.549836,44.39282522479287,8.944020332088286,0.0,4.287587328263017,0.0,0.0,0.0,0.0,0.0,0.0,0.0,0.0,-9.740526982772904,-33.83558030712499,-0.0024433358409741207,-0.0022036949643306006
1567977315.6498516,44.39282433609786,8.944017594133172,0.0,4.287001807088611,0.0,0.0,0.0,0.0,0.0,0.0,0.0,0.0,7.759550779336388,29.442766536878217,0.0063108969350091,0.029426784129260482
1567977315.7497969,44.3928234471249,8.944014859706948,0.0,4.286407500262303,0.0,0.0,0.0,0.0,0.0,0.0,0.0,0.0,-9.717658736223651,-33.74425101315925,-0.0024169036324907375,-0.002151788577519728
1567977315.849748,44.39282255743206,8.944012127054549,0.0,4.285916216245575,0.0,0.0,0.0,0.0,0.0,0.0,0.0,0.0,7.735236813348456,29.361440984658515,0.0063198715711046865,0.029413906508915608
1567977315.9498165,44.392821667645364,8.944009397445212,0.0,4.28547450330014,0.0,0.0,0.0,0.0,0.0,0.0,0.0,0.0,-9.70539940034561,-33.69426641769678,-0.002393634945612267,-0.002115327326361563
1567977316.049872,44.3928207804007,8.944006678840001,0.0,4.28502179588051,0.0,0.0,0.0,0.0,0.0,0.0,0.0,0.0,7.727184245842038,29.330389434848,0.0063360723000027664,0.02941398589526989
1567977316.1498172,44.39281989073774,8.944003956141355,0.0,4.284558826043655,0.0,0.0,0.0,0.0,0.0,0.0,0.0,0.0,-9.693503714643342,-33.63964131118411,-0.002360613754420934,-0.0020508224418000695
1567977316.249868,44.392818999599,8.94400123207805,0.0,4.284161987013762,0.0,0.0,0.0,0.0,0.0,0.0,0.0,0.0,7.701288640481279,29.24646177044629,0.006347157273182794,0.029403067422858996
1567977316.349933,44.39281811033232,8.943998516414164,0.0,4.2838041902121695,0.0,0.0,0.0,0.0,0.0,0.0,0.0,0.0,-9.672212067025603,-33.56678445198181,-0.0023283965819361338,-0.0019938769314729946
1567977316.4499161,44.392817217321095,8.943995792063403,0.0,4.28338494937206,0.0,0.0,0.0,0.0,0.0,0.0,0.0,0.0,7.676138470586608,29.174552421888066,0.006352052383382268,0.029375452003959447
1567977316.5497441,44.39281632717628,8.943993079704732,0.0,4.282903498657728,0.0,0.0,0.0,0.0,0.0,0.0,0.0,0.0,-9.644591275885961,-33.472423686848316,-0.002298873442488661,-0.0019431987415823304
1567977316.649824,44.39281543448757,8.943990363130839,0.0,4.2824081661619005,0.0,0.0,0.0,0.0,0.0,0.0,0.0,0.0,7.656707347264213,29.118090094954717,0.006359748320289376,0.029356327033113673
1567977316.749825,44.392814542352504,8.943987651764292,0.0,4.281920303047368,0.0,0.0,0.0,0.0,0.0,0.0,0.0,0.0,-9.626676613632853,-33.403060129595616,-0.002274326938411981,-0.001901738813663928
1567977316.8498442,44.39281364901313,8.943984940339792,0.0,4.281391975992888,0.0,0.0,0.0,0.0,0.0,0.0,0.0,0.0,7.637645629127345,29.05946163556291,0.006365066803871426,0.0293320035777691
1567977316.94985,44.39281275526011,8.943982231606519,0.0,4.280817163666768,0.0,0.0,0.0,0.0,0.0,0.0,0.0,0.0,-9.610803580140889,-33.33694403133985,-0.002251192926880593,-0.0018610676524085795
1567977317.0498476,44.39281186129745,8.943979526294596,0.0,4.280265910258773,0.0,0.0,0.0,0.0,0.0,0.0,0.0,0.0,7.618878228134904,28.998082340520263,0.006372025764379097,0.029312294109293903
1567977317.1499197,44.39281096705388,8.943976823858662,0.0,4.279770820289915,0.0,0.0,0.0,0.0,0.0,0.0,0.0,0.0,-9.595418314414097,-33.27458959017079,-0.0022265391384299,-0.0018180698769543514
1567977317.2498374,44.392810073230834,8.943974126078821,0.0,4.27930533588286,0.0,0.0,0.0,0.0,0.0,0.0,0.0,0.0,7.601363065201579,28.939413995467028,0.006380632428907553,0.029293739561091398
1567977317.349785,44.39280917675939,8.943971423600061,0.0,4.278839650543363,0.0,0.0,0.0,0.0,0.0,0.0,0.0,0.0,-9.582243338798115,-33.213682792951104,-0.00220518744545787,-0.0017854463761258453
1567977317.449862,44.39280828421667,8.94396873617861,0.0,4.278399533526009,0.0,0.0,0.0,0.0,0.0,0.0,0.0,0.0,7.597143249203453,28.915177154382334,0.006397536609252469,0.029294303840556105
1567977317.5497255,44.392807388307475,8.943966041595257,0.0,4.277999419433227,0.0,0.0,0.0,0.0,0.0,0.0,0.0,0.0,-9.573288656570776,-33.16534119838346,-0.0021773084759563526,-0.0017346206996763473
1567977317.6499333,44.39280649412933,8.943963355002245,0.0,4.277600426915203,0.0,0.0,0.0,0.0,0.0,0.0,0.0,0.0,7.581408746732752,28.856554828687077,0.006411394673344682,0.029288054095039366
1567977317.7498991,44.39280559753116,8.943960664084724,0.0,4.277158281669557,0.0,0.0,0.0,0.0,0.0,0.0,0.0,0.0,-9.561857548970488,-33.1114030752379,-0.002151747849300123,-0.0016906328916795783
1567977317.8497975,44.39280470174939,8.943957978863816,0.0,4.276678779625129,0.0,0.0,0.0,0.0,0.0,0.0,0.0,0.0,7.566118263151045,28.803748264844188,0.0064215623668942125,0.02927426592592169
1567977317.949818,44.392803804743416,8.943955293399805,0.0,4.27618661989753,0.0,0.0,0.0,0.0,0.0,0.0,0.0,0.0,-9.547781796809375,-33.051217061881594,-0.002127623155199287,-0.001649155182518302
1567977318.0502098,44.39280290707189,8.943952609451324,0.0,4.275675599754791,0.0,0.0,0.0,0.0,0.0,0.0,0.0,0.0,7.5463053011090455,28.740916159647934,0.006427458406528264,0.029253433959645272
1567977318.149992,44.392802009899306,8.94394993068142,0.0,4.275130140788962,0.0,0.0,0.0,0.0,0.0,0.0,0.0,0.0,-9.532398910166679,-32.9916715241604,-0.002101924441193983,-0.0016010000129563495
1567977318.250266,44.39280111297062,8.943947256512198,0.0,4.274569466398866,0.0,0.0,0.0,0.0,0.0,0.0,0.0,0.0,7.523213547863942,28.66549198782204,0.006431366173318368,0.029223351878652867
1567977318.349859,44.392800212180525,8.943944574694115,0.0,4.274030811393455,0.0,0.0,0.0,0.0,0.0,0.0,0.0,0.0,-9.518825410709427,-32.92555501107394,-0.002085380663906675,-0.0015769466060851119
1567977318.449793,44.392799316222664,8.943941910862849,0.0,4.273530894692115,0.0,0.0,0.0,0.0,0.0,0.0,0.0,0.0,7.517903271146068,28.636320784014096,0.006440622147330921,0.02920326206879129
1567977318.549794,44.392798418489186,8.943939245145081,0.0,4.2730501738322175,0.0,0.0,0.0,0.0,0.0,0.0,0.0,0.0,-9.500533014491394,-32.847912278679296,-0.002060533138899193,-0.0015362161584584581
1567977318.6497974,44.39279751989507,8.943936580147314,0.0,4.272585494590867,0.0,0.0,0.0,0.0,0.0,0.0,0.0,0.0,7.50187059639105,28.58519398713858,0.006450065891001908,0.029187716116963434
1567977318.7498019,44.392796621585106,8.943933919115441,0.0,4.272148541185977,0.0,0.0,0.0,0.0,0.0,0.0,0.0,0.0,-9.483739670527942,-32.78276788199817,-0.0020320450629788813,-0.001484775699817472
1567977318.8498018,44.39279572313292,8.943931260599431,0.0,4.271732021668726,0.0,0.0,0.0,0.0,0.0,0.0,0.0,0.0,7.48292333669951,28.52082434356931,0.006460809752576181,0.02917396356810809
1567977318.949793,44.3927948223136,8.943928597972254,0.0,4.2713057327721415,0.0,0.0,0.0,0.0,0.0,0.0,0.0,0.0,-9.471643053185778,-32.726455784228854,-0.002010483742956642,-0.001451428351309618
1567977319.0498695,44.39279392451778,8.943925947304999,0.0,4.270849253852049,0.0,0.0,0.0,0.0,0.0,0.0,0.0,0.0,7.475373024410017,28.48754059618595,0.006474064957469379,0.029166931125830454
1567977319.1498754,44.39279302455435,8.943923293475537,0.0,4.270365634081152,0.0,0.0,0.0,0.0,0.0,0.0,0.0,0.0,-9.461178524771828,-32.675461277053934,-0.001985771546424926,-0.0014081024767618223
1567977319.2498415,44.39279212321723,8.943920638986613,0.0,4.2698624899968465,0.0,0.0,0.0,0.0,0.0,0.0,0.0,0.0,7.45348098220331,28.41834880804234,0.006476841996335968,0.02913647467708552
1567977319.3498454,44.392791223699334,8.943917993373553,0.0,4.269335675318423,0.0,0.0,0.0,0.0,0.0,0.0,0.0,0.0,-9.439803524687527,-32.59800221859271,-0.00196211478036457,-0.001368128236856423
1567977319.4495878,44.39279032264185,8.943915346921145,0.0,4.268784230734742,0.0,0.0,0.0,0.0,0.0,0.0,0.0,0.0,7.432736950685634,28.354728230009663,0.006479783005586802,0.029106635539485667
1567977319.54984,44.392789423170356,8.943912708901351,0.0,4.268231012449318,0.0,0.0,0.0,0.0,0.0,0.0,0.0,0.0,-9.418959947588059,-32.52146700772041,-0.0019412544564341777,-0.0013390211204929135
1567977319.6497972,44.3927885211324,8.943910067071648,0.0,4.267696117710649,0.0,0.0,0.0,0.0,0.0,0.0,0.0,0.0,7.417477070254341,28.312659467931137,0.006485076497151195,0.029085220207361824
1567977319.7498116,44.39278762040574,8.943907432623895,0.0,4.267187684345622,0.0,0.0,0.0,0.0,0.0,0.0,0.0,0.0,-9.404587199996987,-32.46621119272151,-0.0019180354897604954,-0.0012998544803093127
1567977319.8498776,44.39278672009861,8.943904802771327,0.0,4.266700258429658,0.0,0.0,0.0,0.0,0.0,0.0,0.0,0.0,7.401660680211226,28.25812477447406,0.006493766089580989,0.029067117493697992
1567977319.949865,44.39278581893956,8.943902173658879,0.0,4.266233532399493,0.0,0.0,0.0,0.0,0.0,0.0,0.0,0.0,-9.389479079237763,-32.4028534576664,-0.001891054092408113,-0.00124986301739851
1567977320.0498905,44.39278491671548,8.943899544518496,0.0,4.265789177971886,0.0,0.0,0.0,0.0,0.0,0.0,0.0,0.0,7.378056706967572,28.180382630366577,0.006498848460238126,0.029039722901159606
1567977320.1498704,44.39278401696146,8.943896925521491,0.0,4.26535489658462,0.0,0.0,0.0,0.0,0.0,0.0,0.0,0.0,-9.364321392260123,-32.315925044773614,-0.0018614231645713028,-0.0011974371990347114
1567977320.2497776,44.392783115720135,8.94389430514737,0.0,4.264908892479841,0.0,0.0,0.0,0.0,0.0,0.0,0.0,0.0,7.357094830799826,28.113894503815484,0.006507934133613017,0.02902282358685908
1567977320.3498113,44.392782213749136,8.94389168572302,0.0,4.2644391140080025,0.0,0.0,0.0,0.0,0.0,0.0,0.0,0.0,-9.349194769788603,-32.253956909502264,-0.0018375753278394242,-0.0011577291809352387
1567977320.4498208,44.392781310808836,8.943889066719468,0.0,4.263945258290443,0.0,0.0,0.0,0.0,0.0,0.0,0.0,0.0,7.3379497186756675,28.053262817478053,0.006517386022339711,0.029015043313348417
1567977320.5496883,44.39278040839729,8.943886452629286,0.0,4.2634295857385975,0.0,0.0,0.0,0.0,0.0,0.0,0.0,0.0,-9.340822274843237,-32.221868561700475,-0.00181784598075383,-0.0011308972873665286
1567977320.6498368,44.3927795074215,8.943883846211103,0.0,4.2628917526577865,0.0,0.0,0.0,0.0,0.0,0.0,0.0,0.0,7.327835446657248,28.02088865929404,0.006518882473601912,0.02897507891616839
1567977320.749956,44.39277860358994,8.94388123518558,0.0,4.262336339403685,0.0,0.0,0.0,0.0,0.0,0.0,0.0,0.0,-9.320650509628699,-32.133132546488596,-0.0017987227434306764,-0.0010972956584485508
1567977320.850051,44.39277770221274,8.94387863493895,0.0,4.261784039158194,0.0,0.0,0.0,0.0,0.0,0.0,0.0,0.0,7.312350388095773,27.961839363169744,0.006528655825390208,0.028965169359774116
1567977320.950326,44.39277679928602,8.943876033843853,0.0,4.261247399107356,0.0,0.0,0.0,0.0,0.0,0.0,0.0,0.0,-9.313449660210726,-32.097174128084404,-0.0017801396138169738,-0.001072394926747263
1567977321.0502865,44.39277589523797,8.9438734330092,0.0,4.260731720660123,0.0,0.0,0.0,0.0,0.0,0.0,0.0,0.0,7.29713689039227,27.917869325672235,0.006530311916536516,0.028932821572446518
1567977321.1497934,44.392774992738865,8.94387083996569,0.0,4.26023781832812,0.0,0.0,0.0,0.0,0.0,0.0,0.0,0.0,-9.292583928561992,-32.02258839720864,-0.0017563568424863321,-0.0010324698273660726
1567977321.2498698,44.39277409152638,8.943868253801883,0.0,4.259765147004817,0.0,0.0,0.0,0.0,0.0,0.0,0.0,0.0,7.282249544105129,27.865003056978278,0.006540559096906376,0.028918541596643768
1567977321.349669,44.3927731870678,8.943865661385521,0.0,4.259308628391217,0.0,0.0,0.0,0.0,0.0,0.0,0.0,0.0,-9.28276483716857,-31.97241127521264,-0.001733253497804294,-0.0009909536160259622
1567977321.4498248,44.3927722854263,8.943863080014806,0.0,4.258856886371014,0.0,0.0,0.0,0.0,0.0,0.0,0.0,0.0,7.265783345542345,27.802178448184822,0.006549956706343668,0.028902599927906888
1567977321.5498447,44.39277138365012,8.943860501249642,0.0,4.2583937817687385,0.0,0.0,0.0,0.0,0.0,0.0,0.0,0.0,-9.26507827423006,-31.906522865055713,-0.0017092087047051443,-0.0009560509085582668
1567977321.649862,44.39277048073532,8.943857922323225,0.0,4.2579105790677865,0.0,0.0,0.0,0.0,0.0,0.0,0.0,0.0,7.251339393744072,27.760856811095913,0.006554449640426571,0.02887398172518972
1567977321.7497437,44.39276957693961,8.943855344115178,0.0,4.257404465630032,0.0,0.0,0.0,0.0,0.0,0.0,0.0,0.0,-9.247399393168632,-31.834761290272297,-0.001690395590310304,-0.000928839565994953
1567977321.849819,44.392768674915196,8.943852774327707,0.0,4.256876674207573,0.0,0.0,0.0,0.0,0.0,0.0,0.0,0.0,7.2411064147098365,27.722914787282434,0.006561071603681796,0.02885196887715923
1567977321.9498467,44.392767769410405,8.943850198140378,0.0,4.256327288680598,0.0,0.0,0.0,0.0,0.0,0.0,0.0,0.0,-9.239173081163205,-31.785988078947238,-0.001675480911009,-0.0009067352085333838
1567977322.0498562,44.39276686599236,8.943847631494952,0.0,4.255768260313877,0.0,0.0,0.0,0.0,0.0,0.0,0.0,0.0,7.228284494006597,27.674676984406485,0.006564572527646854,0.02882526901600057
1567977322.1499372,44.39276596393254,8.943845072320864,0.0,4.255213082248224,0.0,0.0,0.0,0.0,0.0,0.0,0.0,0.0,-9.221679975316997,-31.721346164814072,-0.0016508443117593192,-0.0008618460744839393
1567977322.249839,44.39276506142311,8.943842515415563,0.0,4.2546717546517545,0.0,0.0,0.0,0.0,0.0,0.0,0.0,0.0,7.205019641248745,27.599080461041922,0.006568192109263416,0.028796123363457656
1567977322.3496904,44.392764156491744,8.943839955091587,0.0,4.25414848436214,0.0,0.0,0.0,0.0,0.0,0.0,0.0,0.0,-9.207944395850213,-31.659544709688017,-0.0016354844167559635,-0.0008430280851461878
1567977322.4497764,44.39276325410909,8.943837405275623,0.0,4.253646781612719,0.0,0.0,0.0,0.0,0.0,0.0,0.0,0.0,7.197725222519068,27.56952230102624,0.006575116590253167,0.028774913051867464
1567977322.549693,44.392762351193106,8.943834857111973,0.0,4.253164631919345,0.0,0.0,0.0,0.0,0.0,0.0,0.0,0.0,-9.192752438016566,-31.59814772730188,-0.0016128142662126506,-0.000806564692713542
1567977322.6498356,44.392761449287875,8.9438323148415,0.0,4.252695472877054,0.0,0.0,0.0,0.0,0.0,0.0,0.0,0.0,7.183705880584976,27.5198498765363,0.006585135472463136,0.02876169120051244
1567977322.749797,44.39276054634772,8.943829772650671,0.0,4.252225939136416,0.0,0.0,0.0,0.0,0.0,0.0,0.0,0.0,-9.180751289375136,-31.547238052989528,-0.0015916378443465518,-0.0007761786684128656
1567977322.8497572,44.39275964262344,8.943827231284532,0.0,4.251745061945405,0.0,0.0,0.0,0.0,0.0,0.0,0.0,0.0,7.16915545942406,27.47507786163814,0.006589188944852512,0.02873425861482501
1567977322.9498405,44.392758739870764,8.943824695766041,0.0,4.251247283386206,0.0,0.0,0.0,0.0,0.0,0.0,0.0,0.0,-9.162256461842244,-31.47860346662513,-0.0015693734573607324,-0.0007395074059045222
1567977323.049844,44.39275783640145,8.943822161470498,0.0,4.250727601361216,0.0,0.0,0.0,0.0,0.0,0.0,0.0,0.0,7.149881334448718,27.413201097463464,0.00659006302517584,0.02869782959366674
1567977323.1496613,44.39275693321195,8.943819631327651,0.0,4.250186369167661,0.0,0.0,0.0,0.0,0.0,0.0,0.0,0.0,-9.142159060808606,-31.400801335185285,-0.0015497307866381522,-0.0007069468409239034
1567977323.2498133,44.3927560315596,8.943817108967753,0.0,4.249628796591097,0.0,0.0,0.0,0.0,0.0,0.0,0.0,0.0,7.134645766480838,27.357867472606912,0.006597355523144739,0.02868082983205789
1567977323.349819,44.392755129001294,8.943814587624015,0.0,4.249063817975053,0.0,0.0,0.0,0.0,0.0,0.0,0.0,0.0,-9.131959155198084,-31.355379794580188,-0.0015305877790254994,-0.0006778382816551437
1567977323.449984,44.39275422599087,8.943812068570898,0.0,4.248503050293218,0.0,0.0,0.0,0.0,0.0,0.0,0.0,0.0,7.116869500485775,27.302550833041792,0.006599409318074924,0.028651284377996203
1567977323.5497923,44.39275332308178,8.943809553292738,0.0,4.24795442082484,0.0,0.0,0.0,0.0,0.0,0.0,0.0,0.0,-9.116299731757698,-31.295119199165605,-0.0015121295258524329,-0.0006505811677125321
1567977323.649829,44.39275242080827,8.943807043172207,0.0,4.247423726618745,0.0,0.0,0.0,0.0,0.0,0.0,0.0,0.0,7.101890291297973,27.253268595484556,0.006600385731858396,0.028614067915917515
1567977323.7497377,44.39275151798396,8.943804534783936,0.0,4.246912094275386,0.0,0.0,0.0,0.0,0.0,0.0,0.0,0.0,-9.095880681863889,-31.21503987427712,-0.0014927125004807291,-0.0006206933696196008
1567977323.8497965,44.39275061582708,8.94380203139159,0.0,4.24641716330415,0.0,0.0,0.0,0.0,0.0,0.0,0.0,0.0,7.087309928119673,27.20254858861006,0.006605389369812865,0.028588592742707
1567977323.9498162,44.3927497147268,8.943799533978448,0.0,4.245931927199983,0.0,0.0,0.0,0.0,0.0,0.0,0.0,0.0,-9.077227777886762,-31.146619388305485,-0.0014666437927099993,-0.0005735913683280816
1567977324.0497499,44.392748811910266,8.943797034831615,0.0,4.245444603732139,0.0,0.0,0.0,0.0,0.0,0.0,0.0,0.0,7.061717590684367,27.1215500922454,0.006605709941795437,0.02855021372640069
1567977324.1497738,44.392747910458304,8.943794542511398,0.0,4.244947728660906,0.0,0.0,0.0,0.0,0.0,0.0,0.0,0.0,-9.05286361537385,-31.059729147498985,-0.0014472250444976026,-0.0005475632442632113
1567977324.2498946,44.39274700856687,8.943792052104712,0.0,4.244433569229077,0.0,0.0,0.0,0.0,0.0,0.0,0.0,0.0,7.049518275845713,27.083133837137677,0.00661140327610706,0.028529065094907467
1567977324.3499873,44.392746106586515,8.943789564692333,0.0,4.243899291836085,0.0,0.0,0.0,0.0,0.0,0.0,0.0,0.0,-9.041040732436695,-31.010302348171933,-0.0014268874246342938,-0.0005124552215859564
1567977324.4502962,44.39274520439138,8.943787080046683,0.0,4.24334547205472,0.0,0.0,0.0,0.0,0.0,0.0,0.0,0.0,7.028075566764633,27.012597594890668,0.006611746855391961,0.028495093286322028
1567977324.5499537,44.39274430261122,8.943784599998068,0.0,4.242777387619764,0.0,0.0,0.0,0.0,0.0,0.0,0.0,0.0,-9.023690442609261,-30.944800300096986,-0.0014097085222595724,-0.00048713052386332306
1567977324.6501381,44.392743402928076,8.943782129212911,0.0,4.242205741412835,0.0,0.0,0.0,0.0,0.0,0.0,0.0,0.0,7.015577594029859,26.96725890740591,0.006617739528375593,0.028474884533258683
1567977324.7497919,44.39274250144532,8.943779656983098,0.0,4.241636737634501,0.0,0.0,0.0,0.0,0.0,0.0,0.0,0.0,-9.013858356602706,-30.899215745196035,-0.0013948598032087539,-0.00047068213803121844
1567977324.8498173,44.39274159969711,8.943777187472477,0.0,4.241079119327896,0.0,0.0,0.0,0.0,0.0,0.0,0.0,0.0,7.0029128943597145,26.92998005476963,0.006615818860100721,0.028433551530642
1567977324.9499567,44.39274069826173,8.94377472217108,0.0,4.24053799665489,0.0,0.0,0.0,0.0,0.0,0.0,0.0,0.0,-8.993809183886695,-30.82288480509213,-0.0013776536428582913,-0.00044469363525255837
1567977325.0498984,44.39273979984109,8.94377226833822,0.0,4.240015917897656,0.0,0.0,0.0,0.0,0.0,0.0,0.0,0.0,6.992902887528562,26.887436602503506,0.006624443174182429,0.028416814040502437
1567977325.1498659,44.39273889970674,8.9437698129495,0.0,4.239506887639742,0.0,0.0,0.0,0.0,0.0,0.0,0.0,0.0,-8.983023703739336,-30.773254314191995,-0.0013550173725615936,-0.0004049201724376575
1567977325.2499356,44.39273799857097,8.943767357892817,0.0,4.239003106528212,0.0,0.0,0.0,0.0,0.0,0.0,0.0,0.0,6.968866670645747,26.810568214279737,0.0066246242035962145,0.028381255493321135
1567977325.3498898,44.39273709987743,8.9437649125261,0.0,4.238498949460784,0.0,0.0,0.0,0.0,0.0,0.0,0.0,0.0,-8.959038592872773,-30.693542293935515,-0.0013340717897806715,-0.00037598607156004785
1567977325.4498777,44.39273620066218,8.943762468801925,0.0,4.237984824644855,0.0,0.0,0.0,0.0,0.0,0.0,0.0,0.0,6.9549853866244815,26.768555661709755,0.006628663785300428,0.028354123542545157
1567977325.5499172,44.39273530180513,8.943760029184732,0.0,4.237454852834336,0.0,0.0,0.0,0.0,0.0,0.0,0.0,0.0,-8.941952164425784,-30.628821277786074,-0.0013150422560248816,-0.0003489450963603119
1567977325.6498826,44.39273440154101,8.94375758899187,0.0,4.236904188646097,0.0,0.0,0.0,0.0,0.0,0.0,0.0,0.0,6.937570316367397,26.71648193748279,0.00662774308479763,0.02831681257284319
1567977325.7497687,44.39273350311775,8.943755157132069,0.0,4.236337310604863,0.0,0.0,0.0,0.0,0.0,0.0,0.0,0.0,-8.921458136376563,-30.555797111804935,-0.0012970481040751646,-0.00032244584603446577
1567977325.849806,44.392732603802806,8.943752726280929,0.0,4.235759004967029,0.0,0.0,0.0,0.0,0.0,0.0,0.0,0.0,6.9200758541998,26.6618809448543,0.006624890987219338,0.028272604874248087
1567977325.9497573,44.392731704055976,8.943750297726952,0.0,4.235175726617948,0.0,0.0,0.0,0.0,0.0,0.0,0.0,0.0,-8.902896596101812,-30.479839177830712,-0.0012839235458373616,-0.00030460212339710954
1567977326.0497174,44.3927308062327,8.943747877817312,0.0,4.234597079230905,0.0,0.0,0.0,0.0,0.0,0.0,0.0,0.0,6.909120567838777,26.618498748371714,0.0066270518958220824,0.028242010057577704
1567977326.1496618,44.39272990866088,8.943745461982195,0.0,4.234029035944909,0.0,0.0,0.0,0.0,0.0,0.0,0.0,0.0,-8.88780634723067,-30.41858225154325,-0.0012665408066224954,-0.00027869258609453454
1567977326.2499058,44.39272901012454,8.94374304686725,0.0,4.233476275236413,0.0,0.0,0.0,0.0,0.0,0.0,0.0,0.0,6.891878946348888,26.562881773289863,0.006631171156527887,0.028221488796922017
1567977326.349874,44.39272811329768,8.943740639554782,0.0,4.232939659885105,0.0,0.0,0.0,0.0,0.0,0.0,0.0,0.0,-8.87592680202255,-30.376712989527007,-0.0012486688193137094,-0.0002554418051982574
1567977326.4498615,44.39272721526411,8.943738232130077,0.0,4.232413355443084,0.0,0.0,0.0,0.0,0.0,0.0,0.0,0.0,6.8767713992260155,26.517970400546144,0.006631609822438793,0.028187059907401127
1567977326.5498726,44.39272631899362,8.943735832495806,0.0,4.23189346448544,0.0,0.0,0.0,0.0,0.0,0.0,0.0,0.0,-8.855894518960259,-30.3059840897563,-0.0012275531438557382,-0.00022058824696333593
1567977326.6497717,44.3927254240525,8.943733439460596,0.0,4.231371476022193,0.0,0.0,0.0,0.0,0.0,0.0,0.0,0.0,6.861004443921308,26.460793505536373,0.0066339816126771015,0.028150789024194593
1567977326.7498636,44.39272452635791,8.94373104214664,0.0,4.230837828916556,0.0,0.0,0.0,0.0,0.0,0.0,0.0,0.0,-8.839606384877614,-30.231315485696946,-0.0012139334439201328,-0.00020323477197903977
1567977326.8498547,44.3927236305313,8.94372865296877,0.0,4.230289880698397,0.0,0.0,0.0,0.0,0.0,0.0,0.0,0.0,6.851507836418422,26.422152919818096,0.006639038172679576,0.028130148624404293
1567977326.9499483,44.3927227360137,8.943726270511277,0.0,4.22972489144626,0.0,0.0,0.0,0.0,0.0,0.0,0.0,0.0,-8.827087026008831,-30.18438839645674,-0.0011962986712151036,-0.00017956847447823596
1567977327.0499258,44.39272184001974,8.943723887446207,0.0,4.229144001312445,0.0,0.0,0.0,0.0,0.0,0.0,0.0,0.0,6.835297521166801,26.373956205269806,0.006639269480718429,0.028098127488654333
1567977327.1499305,44.392720944436,8.943721508864604,0.0,4.228552486482842,0.0,0.0,0.0,0.0,0.0,0.0,0.0,0.0,-8.813587240574217,-30.13077115142869,-0.0011812417831523299,-0.00015685467379064622
1567977327.249803,44.39272004944539,8.943719135284981,0.0,4.227957158817102,0.0,0.0,0.0,0.0,0.0,0.0,0.0,0.0,6.818493778451548,26.31703957606203,0.006636947026112279,0.028057647392370648
1567977327.34986,44.39271915388119,8.943716763604609,0.0,4.227366075639168,0.0,0.0,0.0,0.0,0.0,0.0,0.0,0.0,-8.797303304432955,-30.06454901491015,-0.0011685521997465845,-0.0001402991664340887
1567977327.4498591,44.39271826074053,8.943714401697976,0.0,4.226786411424703,0.0,0.0,0.0,0.0,0.0,0.0,0.0,0.0,6.807937730842688,26.275138116472117,0.006638282228729752,0.028024652545684675
1567977327.549747,44.392717366568334,8.94371204034821,0.0,4.226218996899773,0.0,0.0,0.0,0.0,0.0,0.0,0.0,0.0,-8.782944521724623,-30.003442491720598,-0.0011532986514587633,-0.00011849473526885299
1567977327.649832,44.392716473088456,8.943709684025897,0.0,4.225665425017269,0.0,0.0,0.0,0.0,0.0,0.0,0.0,0.0,6.793259132062875,26.224158149910078,0.006638991387015731,0.027991534345985915
1567977327.749912,44.392715580446755,8.943707333032602,0.0,4.225122388279328,0.0,0.0,0.0,0.0,0.0,0.0,0.0,0.0,-8.76561522825081,-29.939355025194725,-0.0011363299375952846,-9.532172783065923e-05
1567977327.8498163,44.39271468958062,8.94370498977601,0.0,4.224584537429877,0.0,0.0,0.0,0.0,0.0,0.0,0.0,0.0,6.783067218922767,26.18498099861632,0.006644880020436732,0.027968945637604464
1567977327.9498458,44.39271379694519,8.943702644922388,0.0,4.2240423402411125,0.0,0.0,0.0,0.0,0.0,0.0,0.0,0.0,-8.755148382700483,-29.88993863122784,-0.0011199365661036754,-7.122753399944545e-05
1567977328.0498455,44.392712905340105,8.943700305864898,0.0,4.223490080841179,0.0,0.0,0.0,0.0,0.0,0.0,0.0,0.0,6.76849553792804,26.133572157968366,0.006645254353551978,0.027933863048991116
1567977328.1497338,44.392712013537476,8.943697969442752,0.0,4.222923587924946,0.0,0.0,0.0,0.0,0.0,0.0,0.0,0.0,-8.738530426781498,-29.824455593691006,-0.001103002322006356,-4.345661471436002e-05
1567977328.2498531,44.392711124091775,8.943695642412964,0.0,4.222342830084241,0.0,0.0,0.0,0.0,0.0,0.0,0.0,0.0,6.753434810897485,26.07634778406014,0.006648134665648462,0.027905508012826388
1567977328.349898,44.392710232063045,8.943693311933684,0.0,4.221745823905364,0.0,0.0,0.0,0.0,0.0,0.0,0.0,0.0,-8.728524223366497,-29.774948748819345,-0.0010935839909116986,-3.768601768028637e-05
1567977328.449946,44.392709342862396,8.94369099220297,0.0,4.2211403357317945,0.0,0.0,0.0,0.0,0.0,0.0,0.0,0.0,6.748468182950866,26.0542728215672,0.006648890913758829,0.02787253622725963
1567977328.54981,44.39270845231649,8.943688672355625,0.0,4.220531150764927,0.0,0.0,0.0,0.0,0.0,0.0,0.0,0.0,-8.716120433244027,-29.719383858697476,-0.0010813720641541453,-2.2301681817084307e-05
1567977328.6497881,44.3927075626291,8.943686358123575,0.0,4.219926665719651,0.0,0.0,0.0,0.0,0.0,0.0,0.0,0.0,6.734836132931687,26.007309264106077,0.006647886673751672,0.027838299961317127
1567977328.7497723,44.39270667336905,8.943684048332818,0.0,4.219331506816626,0.0,0.0,0.0,0.0,0.0,0.0,0.0,0.0,-8.701770111911427,-29.66439577733264,-0.00106720593723894,-2.92241292952633e-06
1567977328.8501008,44.39270578502581,8.943681744183571,0.0,4.218747792288394,0.0,0.0,0.0,0.0,0.0,0.0,0.0,0.0,6.720349828223667,25.95772625489497,0.006645398451218247,0.02779599460965267
1567977328.949902,44.392704896337136,8.943679442327522,0.0,4.218176228169476,0.0,0.0,0.0,0.0,0.0,0.0,0.0,0.0,-8.684487933484373,-29.59375051895988,-0.0010541055816637064,1.2860745026294085e-05
1567977329.0497823,44.392704010812665,8.943677151773882,0.0,4.217615139469164,0.0,0.0,0.0,0.0,0.0,0.0,0.0,0.0,6.716531608115332,25.93073554260939,0.006653933504443805,0.027778574195824333
1567977329.149913,44.392703124230096,8.943674861552081,0.0,4.217056462675977,0.0,0.0,0.0,0.0,0.0,0.0,0.0,0.0,-8.67451261634562,-29.545865356261643,-0.0010359933407633453,4.134946918647395e-05
1567977329.2498639,44.39270223757703,8.943672574213453,0.0,4.216493819405441,0.0,0.0,0.0,0.0,0.0,0.0,0.0,0.0,6.6982072872588025,25.869865248990404,0.006653673170694244,0.02774345569930695
1567977329.3498113,44.39270135048174,8.943670288833847,0.0,4.215921030095256,0.0,0.0,0.0,0.0,0.0,0.0,0.0,0.0,-8.659395163498715,-29.485611365260986,-0.0010212717304850742,6.375283764813167e-05
1567977329.449853,44.39270046546786,8.943668011964068,0.0,4.2153364061193574,0.0,0.0,0.0,0.0,0.0,0.0,0.0,0.0,6.683707435750229,25.815942801166674,0.006656374928693272,0.02771873478985621
1567977329.5498621,44.39269957982907,8.943665736703332,0.0,4.2147366437003235,0.0,0.0,0.0,0.0,0.0,0.0,0.0,0.0,-8.648884887529016,-29.4433375761435,-0.001007083656461778,8.26033179560752e-05
1567977329.6501222,44.39269869598936,8.943663469344356,0.0,4.214123925456931,0.0,0.0,0.0,0.0,0.0,0.0,0.0,0.0,6.66978281280831,25.768647347821005,0.0066547013159141515,0.027680771075629766
1567977329.7497206,44.3926978096297,8.943661198868396,0.0,4.2135004657021735,0.0,0.0,0.0,0.0,0.0,0.0,0.0,0.0,-8.637813857549167,-29.389242779917126,-0.0009973897659881804,9.375872341358879e-05
1567977329.849861,44.39269692599623,8.943658938736487,0.0,4.212876499018378,0.0,0.0,0.0,0.0,0.0,0.0,0.0,0.0,6.660948102504751,25.729830047353474,0.006652603685490189,0.027639053154678753
1567977329.9496913,44.392696043574745,8.9436566850413,0.0,4.212257194915896,0.0,0.0,0.0,0.0,0.0,0.0,0.0,0.0,-8.615513942910109,-29.308543699518207,-0.000981867907575401,0.00011522479212141418
1567977330.0500288,44.392695160927815,8.943654434067637,0.0,4.211645028110276,0.0,0.0,0.0,0.0,0.0,0.0,0.0,0.0,6.643601114945119,25.676017650231444,0.006652371168918876,0.027608558761968802
1567977330.1498816,44.392694278734595,8.943652187491347,0.0,4.211043409272234,0.0,0.0,0.0,0.0,0.0,0.0,0.0,0.0,-8.601835797258378,-29.259550926320287,-0.0009691657676211638,0.0001272113792037434
